[
  {
    "id": "31744b54-1402-4f5f-8024-71d3f07f06ba",
    "name": "Tel Aviv",
    "coords": {
      "lat": 32.07576,
      "lng": 34.794758
    }
  },
  {
    "id": "b29e6d74-1d12-4c3d-9298-0b3e6b0b6bde",
    "name": "New York",
    "coords": {
      "lat": 40.712776,
      "lng": -74.005974
    }
  },
  {
    "id": "c4cdea35-9154-4af9-bf98-9b0e8f8d6767",
    "name": "London",
    "coords": {
      "lat": 51.507351,
      "lng": -0.127758
    }
  },
  {
    "id": "f14ed5df-7d2a-4b1b-9b99-8c7e2236ad48",
    "name": "Paris",
    "coords": {
      "lat": 48.856613,
      "lng": 2.352222
    }
  },
  {
    "id": "a8926e13-4d69-4297-82ed-0bc63db8fb17",
    "name": "Tokyo",
    "coords": {
      "lat": 35.689487,
      "lng": 139.691711
    }
  },
  {
    "id": "b14c9e34-f14b-4c6b-9c63-10f67e6f3ae9",
    "name": "Sydney",
    "coords": {
      "lat": -33.86882,
      "lng": 151.209296
    }
  },
  {
    "id": "f3e5e88e-8c7d-4f23-b4e0-1f48a1df21fa",
    "name": "Los Angeles",
    "coords": {
      "lat": 34.052235,
      "lng": -118.243683
    }
  },
  {
    "id": "e7a6f8e6-f8cb-4c9e-9378-cce6e8e939d8",
    "name": "Rome",
    "coords": {
      "lat": 41.902782,
      "lng": 12.496366
    }
  },
  {
    "id": "9d9a7f97-5c6e-45f2-b9a3-8e8d3c9fbc61",
    "name": "Berlin",
    "coords": {
      "lat": 52.520008,
      "lng": 13.404954
    }
  },
  {
    "id": "8c6f4e14-5d82-44ed-9c2d-0c64ae8c1d6d",
    "name": "Moscow",
    "coords": {
      "lat": 55.755825,
      "lng": 37.617298
    }
  },
  {
    "id": "c39b03f9-f1e8-414f-83ad-9b9e22f0de4f",
    "name": "Beijing",
    "coords": {
      "lat": 39.904202,
      "lng": 116.407394
    }
  },
  {
    "id": "da8e4e84-7137-4db9-9b6a-c0c9f94f8b8d",
    "name": "Dubai",
    "coords": {
      "lat": 25.276987,
      "lng": 55.296249
    }
  },
  {
    "id": "fb8d6f9f-7844-47fb-b14f-8e8e8a8f9b6a",
    "name": "Singapore",
    "coords": {
      "lat": 1.352083,
      "lng": 103.819839
    }
  },
  {
    "id": "e79f2e68-5d4d-4c9d-8e6d-2d7a9f4e8e8e",
    "name": "Hong Kong",
    "coords": {
      "lat": 22.319303,
      "lng": 114.169361
    }
  },
  {
    "id": "f18c3e5f-8d9e-4c8e-9e7e-2f8e8e9e8e8e",
    "name": "Bangkok",
    "coords": {
      "lat": 13.756331,
      "lng": 100.501762
    }
  },
  {
    "id": "b28d3f9e-8e5c-4c7d-8f6a-9c6e8e8e8e8e",
    "name": "Istanbul",
    "coords": {
      "lat": 41.00824,
      "lng": 28.978359
    }
  },
  {
    "id": "c79d6e8d-8c7f-4e9d-9b9a-2d8e8e8e8e8e",
    "name": "Rio de Janeiro",
    "coords": {
      "lat": -22.906847,
      "lng": -43.172897
    }
  },
  {
    "id": "f18e9e5c-8c7e-4f7d-8e7e-9e8e8e8e8e8e",
    "name": "Cape Town",
    "coords": {
      "lat": -33.92487,
      "lng": 18.424055
    }
  },
  {
    "id": "e78d9e7c-9e5e-4d9d-8e8e-2c8e8e8e8e8e",
    "name": "Toronto",
    "coords": {
      "lat": 43.65107,
      "lng": -79.347015
    }
  },
  {
    "id": "d89e6d9e-8e5d-4c7e-8e9a-9d8e8e8e8e8e",
    "name": "Buenos Aires",
    "coords": {
      "lat": -34.603722,
      "lng": -58.381592
    }
  },
  {
    "name": "123",
    "coords": {
      "lat": 123,
      "lng": 123
    },
    "id": "ba6cdaba-7a5f-4bb2-bfb5-e1f9697ece78"
  },
  {
    "name": "Eilat",
    "coords": {
      "lat": 29.5581,
      "lng": 34.9482
    },
    "id": "f077f6d1-bfd9-4a29-96d2-4b75a7177213"
  }
]